countries:
  AD: { name: "Andorra",                   lat: 42.5,   lng: 1.5    }
  AE: { name: "United Arab Emirates",      lat: 24.0,   lng: 54.0   }
  AF: { name: "Afghanistan",               lat: 33.0,   lng: 65.0   }
  AG: { name: "Antigua and Barbuda",       lat: 17.05,  lng: -61.8  }
  AL: { name: "Albania",                   lat: 41.0,   lng: 20.0   }
  AM: { name: "Armenia",                   lat: 40.0,   lng: 45.0   }
  AO: { name: "Angola",                    lat: -12.5,  lng: 18.5   }
  AR: { name: "Argentina",                 lat: -34.0,  lng: -64.0  }
  AT: { name: "Austria",                   lat: 47.33,  lng: 13.33  }
  AU: { name: "Australia",                 lat: -25.0,  lng: 135.0  }
  AZ: { name: "Azerbaijan",               lat: 40.5,   lng: 47.5   }
  BA: { name: "Bosnia and Herzegovina",    lat: 44.0,   lng: 18.0   }
  BB: { name: "Barbados",                  lat: 13.17,  lng: -59.53 }
  BD: { name: "Bangladesh",               lat: 24.0,   lng: 90.0   }
  BE: { name: "Belgium",                   lat: 50.83,  lng: 4.0    }
  BG: { name: "Bulgaria",                  lat: 43.0,   lng: 25.0   }
  BH: { name: "Bahrain",                   lat: 26.0,   lng: 50.55  }
  BN: { name: "Brunei",                    lat: 4.5,    lng: 114.67 }
  BO: { name: "Bolivia",                   lat: -17.0,  lng: -65.0  }
  BR: { name: "Brazil",                    lat: -10.0,  lng: -55.0  }
  BS: { name: "Bahamas",                   lat: 24.25,  lng: -76.0  }
  BT: { name: "Bhutan",                    lat: 27.5,   lng: 90.5   }
  BW: { name: "Botswana",                  lat: -22.0,  lng: 24.0   }
  BY: { name: "Belarus",                   lat: 53.0,   lng: 28.0   }
  BZ: { name: "Belize",                    lat: 17.25,  lng: -88.75 }
  CA: { name: "Canada",                    lat: 60.0,   lng: -96.0  }
  CH: { name: "Switzerland",              lat: 47.0,   lng: 8.0    }
  CL: { name: "Chile",                     lat: -30.0,  lng: -71.0  }
  CN: { name: "China",                     lat: 35.0,   lng: 105.0  }
  CO: { name: "Colombia",                  lat: 4.0,    lng: -72.0  }
  CR: { name: "Costa Rica",               lat: 10.0,   lng: -84.0  }
  CU: { name: "Cuba",                      lat: 22.0,   lng: -79.5  }
  CY: { name: "Cyprus",                    lat: 35.0,   lng: 33.0   }
  CZ: { name: "Czech Republic",           lat: 49.75,  lng: 15.5   }
  DE: { name: "Germany",                   lat: 51.0,   lng: 9.0    }
  DK: { name: "Denmark",                   lat: 56.0,   lng: 10.0   }
  DO: { name: "Dominican Republic",        lat: 19.0,   lng: -70.67 }
  DZ: { name: "Algeria",                   lat: 28.0,   lng: 3.0    }
  EC: { name: "Ecuador",                   lat: -2.0,   lng: -77.5  }
  EE: { name: "Estonia",                   lat: 59.0,   lng: 26.0   }
  EG: { name: "Egypt",                     lat: 27.0,   lng: 30.0   }
  ES: { name: "Spain",                     lat: 40.0,   lng: -4.0   }
  ET: { name: "Ethiopia",                  lat: 8.0,    lng: 38.0   }
  FI: { name: "Finland",                   lat: 64.0,   lng: 26.0   }
  FJ: { name: "Fiji",                      lat: -18.0,  lng: 175.0  }
  FR: { name: "France",                    lat: 46.0,   lng: 2.0    }
  GB: { name: "United Kingdom",           lat: 54.0,   lng: -2.0   }
  GE: { name: "Georgia",                   lat: 42.0,   lng: 43.5   }
  GH: { name: "Ghana",                     lat: 8.0,    lng: -2.0   }
  GR: { name: "Greece",                    lat: 39.0,   lng: 22.0   }
  GT: { name: "Guatemala",                 lat: 15.5,   lng: -90.25 }
  HK: { name: "Hong Kong",               lat: 22.25,  lng: 114.17 }
  HN: { name: "Honduras",                  lat: 15.0,   lng: -86.5  }
  HR: { name: "Croatia",                   lat: 45.17,  lng: 15.5   }
  HU: { name: "Hungary",                   lat: 47.0,   lng: 20.0   }
  ID: { name: "Indonesia",                 lat: -5.0,   lng: 120.0  }
  IE: { name: "Ireland",                   lat: 53.0,   lng: -8.0   }
  IL: { name: "Israel",                    lat: 31.5,   lng: 34.75  }
  IN: { name: "India",                     lat: 20.0,   lng: 77.0   }
  IQ: { name: "Iraq",                      lat: 33.0,   lng: 44.0   }
  IR: { name: "Iran",                      lat: 32.0,   lng: 53.0   }
  IS: { name: "Iceland",                   lat: 65.0,   lng: -18.0  }
  IT: { name: "Italy",                     lat: 42.83,  lng: 12.83  }
  JM: { name: "Jamaica",                   lat: 18.25,  lng: -77.5  }
  JO: { name: "Jordan",                    lat: 31.0,   lng: 36.0   }
  JP: { name: "Japan",                     lat: 36.0,   lng: 138.0  }
  KE: { name: "Kenya",                     lat: 1.0,    lng: 38.0   }
  KH: { name: "Cambodia",                  lat: 13.0,   lng: 105.0  }
  KR: { name: "South Korea",              lat: 37.0,   lng: 127.5  }
  KW: { name: "Kuwait",                    lat: 29.5,   lng: 47.75  }
  KZ: { name: "Kazakhstan",               lat: 48.0,   lng: 68.0   }
  LA: { name: "Laos",                      lat: 18.0,   lng: 105.0  }
  LB: { name: "Lebanon",                   lat: 33.83,  lng: 35.83  }
  LK: { name: "Sri Lanka",               lat: 7.0,    lng: 81.0   }
  LT: { name: "Lithuania",                 lat: 56.0,   lng: 24.0   }
  LU: { name: "Luxembourg",               lat: 49.75,  lng: 6.17   }
  LV: { name: "Latvia",                    lat: 57.0,   lng: 25.0   }
  MA: { name: "Morocco",                   lat: 32.0,   lng: -5.0   }
  MC: { name: "Monaco",                    lat: 43.73,  lng: 7.42   }
  MD: { name: "Moldova",                   lat: 47.0,   lng: 29.0   }
  ME: { name: "Montenegro",               lat: 42.5,   lng: 19.3   }
  MK: { name: "North Macedonia",          lat: 41.83,  lng: 22.0   }
  MM: { name: "Myanmar",                   lat: 22.0,   lng: 98.0   }
  MN: { name: "Mongolia",                  lat: 46.0,   lng: 105.0  }
  MO: { name: "Macau",                     lat: 22.17,  lng: 113.55 }
  MT: { name: "Malta",                     lat: 35.83,  lng: 14.58  }
  MU: { name: "Mauritius",                 lat: -20.28, lng: 57.55  }
  MV: { name: "Maldives",                  lat: 3.25,   lng: 73.0   }
  MX: { name: "Mexico",                    lat: 23.0,   lng: -102.0 }
  MY: { name: "Malaysia",                  lat: 2.5,    lng: 112.5  }
  MZ: { name: "Mozambique",               lat: -18.25, lng: 35.0   }
  NA: { name: "Namibia",                   lat: -22.0,  lng: 17.0   }
  NG: { name: "Nigeria",                   lat: 10.0,   lng: 8.0    }
  NL: { name: "Netherlands",              lat: 52.5,   lng: 5.75   }
  NO: { name: "Norway",                    lat: 62.0,   lng: 10.0   }
  NP: { name: "Nepal",                     lat: 28.0,   lng: 84.0   }
  NZ: { name: "New Zealand",              lat: -42.0,  lng: 174.0  }
  OM: { name: "Oman",                      lat: 21.0,   lng: 57.0   }
  PA: { name: "Panama",                    lat: 9.0,    lng: -80.0  }
  PE: { name: "Peru",                      lat: -10.0,  lng: -76.0  }
  PH: { name: "Philippines",              lat: 13.0,   lng: 122.0  }
  PK: { name: "Pakistan",                  lat: 30.0,   lng: 70.0   }
  PL: { name: "Poland",                    lat: 52.0,   lng: 20.0   }
  PT: { name: "Portugal",                  lat: 39.5,   lng: -8.0   }
  QA: { name: "Qatar",                     lat: 25.5,   lng: 51.25  }
  RO: { name: "Romania",                   lat: 46.0,   lng: 25.0   }
  RS: { name: "Serbia",                    lat: 44.0,   lng: 21.0   }
  RU: { name: "Russia",                    lat: 60.0,   lng: 100.0  }
  SA: { name: "Saudi Arabia",             lat: 25.0,   lng: 45.0   }
  SE: { name: "Sweden",                    lat: 62.0,   lng: 15.0   }
  SG: { name: "Singapore",                lat: 1.37,   lng: 103.8  }
  SI: { name: "Slovenia",                  lat: 46.12,  lng: 14.82  }
  SK: { name: "Slovakia",                  lat: 48.67,  lng: 19.5   }
  TH: { name: "Thailand",                  lat: 15.0,   lng: 100.0  }
  TN: { name: "Tunisia",                   lat: 34.0,   lng: 9.0    }
  TR: { name: "Turkey",                    lat: 39.0,   lng: 35.0   }
  TW: { name: "Taiwan",                    lat: 23.5,   lng: 121.0  }
  TZ: { name: "Tanzania",                  lat: -6.0,   lng: 35.0   }
  UA: { name: "Ukraine",                   lat: 49.0,   lng: 32.0   }
  UG: { name: "Uganda",                    lat: 1.0,    lng: 32.0   }
  US: { name: "United States",            lat: 38.0,   lng: -97.0  }
  UY: { name: "Uruguay",                   lat: -33.0,  lng: -56.0  }
  UZ: { name: "Uzbekistan",               lat: 41.0,   lng: 64.0   }
  VE: { name: "Venezuela",                 lat: 8.0,    lng: -66.0  }
  VN: { name: "Vietnam",                   lat: 16.17,  lng: 107.83 }
  ZA: { name: "South Africa",             lat: -29.0,  lng: 24.0   }
  ZM: { name: "Zambia",                    lat: -15.0,  lng: 30.0   }
  ZW: { name: "Zimbabwe",                  lat: -20.0,  lng: 30.0   }

